code,name,latitude,longitude,zoom
8,茨城県,36.3418,140.4468,9
9,栃木県,36.5658,139.8836,9
10,群馬県,36.3912,139.0608,9
11,埼玉県,35.8569,139.6489,10
12,千葉県,35.6052,140.1233,9
13,東京都,35.6895,139.6917,11
14,神奈川県,35.4478,139.6425,10

